[
  {
    "id": "J-2001",
    "salary": 700,
    "company": "Raj Hotels",
    "title": "Housekeeping",
    "type": "Shift",
    "location": { "lat": 26.9124, "lon": 75.7873 }
  },
  {
    "id": "J-2002",
    "salary": 820,
    "company": "MetroWorks",
    "title": "Construction Helper",
    "type": "Shift",
    "location": { "lat": 27.0024, "lon": 75.9073 }
  },
  {
    "id": "J-2003",
    "salary": 950,
    "company": "Jaipur Kitchens",
    "title": "Line Cook",
    "type": "Shift",
    "location": { "lat": 26.7624, "lon": 75.8073 }
  },
  {
    "id": "J-2004",
    "salary": 600,
    "company": "Pink City Mall",
    "title": "Retail Associate",
    "type": "Part-time",
    "location": { "lat": 27.1624, "lon": 75.8373 }
  },
  {
    "id": "J-2005",
    "salary": 750,
    "company": "CleanCo",
    "title": "Cleaner (Night)",
    "type": "Shift",
    "location": { "lat": 26.6124, "lon": 75.5873 }
  },
  {
    "id": "J-2006",
    "salary": 840,
    "company": "TransLogix",
    "title": "Warehouse Picker",
    "type": "Shift",
    "location": { "lat": 27.3124, "lon": 75.7873 }
  },
  {
    "id": "J-2007",
    "salary": 1200,
    "company": "CityCare",
    "title": "Nursing Assistant",
    "type": "Contract",
    "location": { "lat": 26.9124, "lon": 76.2373 }
  },
  {
    "id": "J-2008",
    "salary": 680,
    "company": "Hawa Mahal Cafe",
    "title": "Barista",
    "type": "Part-time",
    "location": { "lat": 26.4924, "lon": 75.8873 }
  },
  {
    "id": "J-2009",
    "salary": 900,
    "company": "FixIt Services",
    "title": "Electrician Helper",
    "type": "Shift",
    "location": { "lat": 26.9624, "lon": 75.3673 }
  },
  {
    "id": "J-2010",
    "salary": 870,
    "company": "RideFast",
    "title": "Bike Courier",
    "type": "Shift",
    "location": { "lat": 27.1324, "lon": 75.5073 }
  },
  {
    "id": "J-2011",
    "salary": 720,
    "company": "Artisans Hub",
    "title": "Packager",
    "type": "Shift",
    "location": { "lat": 26.8024, "lon": 75.4573 }
  },
  {
    "id": "J-2012",
    "salary": 980,
    "company": "MetroWorks",
    "title": "Safety Steward",
    "type": "Shift",
    "location": { "lat": 27.2424, "lon": 76.1173 }
  },
  {
    "id": "J-2013",
    "salary": 790,
    "company": "SEZ Logistics",
    "title": "Loader (Night)",
    "type": "Shift",
    "location": { "lat": 26.4624, "lon": 75.7873 }
  },
  {
    "id": "J-2014",
    "salary": 730,
    "company": "Bagru Textiles",
    "title": "Tailoring Assistant",
    "type": "Shift",
    "location": { "lat": 26.9124, "lon": 75.2873 }
  },
  {
    "id": "J-2015",
    "salary": 880,
    "company": "Amber Fort Tours",
    "title": "Ticketing Staff",
    "type": "Shift",
    "location": { "lat": 27.0624, "lon": 75.7873 }
  },
  {
    "id": "J-2016",
    "salary": 1250,
    "company": "Kanota Foods",
    "title": "Quality Inspector",
    "type": "Contract",
    "location": { "lat": 26.8624, "lon": 76.0373 }
  }
]
